linear: 
  x: 5.232133287088319
  y: 0.0
  z: 0.0
angular: 
  x: 0.0
  y: 0.0
  z: 2.5037421218621865
---
linear: 
  x: 4.697681458924308
  y: 0.0
  z: 0.0
angular: 
  x: 0.0
  y: 0.0
  z: 1.995061967358135
---
linear: 
  x: 4.238342954486534
  y: 0.0
  z: 0.0
angular: 
  x: 0.0
  y: 0.0
  z: 1.495539315101486
---
linear: 
  x: 3.857111863225447
  y: 0.0
  z: 0.0
angular: 
  x: 0.0
  y: 0.0
  z: 1.0180019302453218
---
linear: 
  x: 3.544299619212675
  y: 0.0
  z: 0.0
angular: 
  x: 0.0
  y: 0.0
  z: 0.574756103835201
---
linear: 
  x: 3.286890835334301
  y: 0.0
  z: 0.0
angular: 
  x: 0.0
  y: 0.0
  z: 0.17418124801945206
---
linear: 
  x: 3.0713078139897236
  y: 0.0
  z: 0.0
angular: 
  x: 0.0
  y: 0.0
  z: -0.17852650766912453
---
linear: 
  x: 2.8850692341130353
  y: 0.0
  z: 0.0
angular: 
  x: 0.0
  y: 0.0
  z: -0.4811410295666042
---
linear: 
  x: 2.718178826323784
  y: 0.0
  z: 0.0
angular: 
  x: 0.0
  y: 0.0
  z: -0.7339766581694711
---
linear: 
  x: 2.563026907347947
  y: 0.0
  z: 0.0
angular: 
  x: 0.0
  y: 0.0
  z: -0.9390320140755407
---
linear: 
  x: 2.415180591544476
  y: 0.0
  z: 0.0
angular: 
  x: 0.0
  y: 0.0
  z: -1.0998243643586816
---
linear: 
  x: 2.270917580778498
  y: 0.0
  z: 0.0
angular: 
  x: 0.0
  y: 0.0
  z: -1.2199571786636816
---
linear: 
  x: 2.1279827729709044
  y: 0.0
  z: 0.0
angular: 
  x: 0.0
  y: 0.0
  z: -1.3015061070411222
---
linear: 
  x: 1.9851399902532159
  y: 0.0
  z: 0.0
angular: 
  x: 0.0
  y: 0.0
  z: -1.348984017850748
---
linear: 
  x: 1.951610263056514
  y: 0.0
  z: 0.0
angular: 
  x: 0.0
  y: 0.0
  z: -1.4467510083453663
---
linear: 
  x: 1.7683648223895743
  y: 0.0
  z: 0.0
angular: 
  x: 0.0
  y: 0.0
  z: -1.4350350282602016
---
linear: 
  x: 1.6212069180886668
  y: 0.0
  z: 0.0
angular: 
  x: 0.0
  y: 0.0
  z: -1.3980459790009607
---
linear: 
  x: 1.4818627813010639
  y: 0.0
  z: 0.0
angular: 
  x: 0.0
  y: 0.0
  z: -1.3347508336112914
---
linear: 
  x: 1.347643811261302
  y: 0.0
  z: 0.0
angular: 
  x: 0.0
  y: 0.0
  z: -1.2493478195362644
---
linear: 
  x: 1.2211744352223255
  y: 0.0
  z: 0.0
angular: 
  x: 0.0
  y: 0.0
  z: -1.1456279880391782
---
linear: 
  x: 1.10362030554655
  y: 0.0
  z: 0.0
angular: 
  x: 0.0
  y: 0.0
  z: -1.027392154933518
---
linear: 
  x: 0.9949539519120608
  y: 0.0
  z: 0.0
angular: 
  x: 0.0
  y: 0.0
  z: -0.8975899478407862
---
linear: 
  x: 0.8967800413073448
  y: 0.0
  z: 0.0
angular: 
  x: 0.0
  y: 0.0
  z: -0.7632576649417695
---
linear: 
  x: 0.8080042163366393
  y: 0.0
  z: 0.0
angular: 
  x: 0.0
  y: 0.0
  z: -0.6261081326035586
---
linear: 
  x: 0.7281499330971795
  y: 0.0
  z: 0.0
angular: 
  x: 0.0
  y: 0.0
  z: -0.4887080964893939
---
linear: 
  x: 0.6567990121247894
  y: 0.0
  z: 0.0
angular: 
  x: 0.0
  y: 0.0
  z: -0.3559430291021644
---
linear: 
  x: 0.5931059839538156
  y: 0.0
  z: 0.0
angular: 
  x: 0.0
  y: 0.0
  z: -0.2319416904387825
---
linear: 
  x: 0.5361763698691161
  y: 0.0
  z: 0.0
angular: 
  x: 0.0
  y: 0.0
  z: -0.11661164068637996
---
linear: 
  x: 0.48524168830898445
  y: 0.0
  z: 0.0
angular: 
  x: 0.0
  y: 0.0
  z: -0.011725375140746078
---
linear: 
  x: 0.43957912858542353
  y: 0.0
  z: 0.0
angular: 
  x: 0.0
  y: 0.0
  z: 0.08133792192718921
---
linear: 
  x: 0.39854104640739096
  y: 0.0
  z: 0.0
angular: 
  x: 0.0
  y: 0.0
  z: 0.16169897942059722
---
linear: 
  x: 0.36156365994470574
  y: 0.0
  z: 0.0
angular: 
  x: 0.0
  y: 0.0
  z: 0.2288911080006274
---
linear: 
  x: 0.328164366983249
  y: 0.0
  z: 0.0
angular: 
  x: 0.0
  y: 0.0
  z: 0.2828078882379604
---
linear: 
  x: 0.29798142050379783
  y: 0.0
  z: 0.0
angular: 
  x: 0.0
  y: 0.0
  z: 0.3260305726111908
---
linear: 
  x: 0.2707558741130769
  y: 0.0
  z: 0.0
angular: 
  x: 0.0
  y: 0.0
  z: 0.36035824163382485
---
linear: 
  x: 0.24601902318220495
  y: 0.0
  z: 0.0
angular: 
  x: 0.0
  y: 0.0
  z: 0.38375658913997646
---
linear: 
  x: 0.223555544671524
  y: 0.0
  z: 0.0
angular: 
  x: 0.0
  y: 0.0
  z: 0.3962783162212413
---
linear: 
  x: 0.20322127903930146
  y: 0.0
  z: 0.0
angular: 
  x: 0.0
  y: 0.0
  z: 0.3986854535909209
---
linear: 
  x: 0.18475600625912042
  y: 0.0
  z: 0.0
angular: 
  x: 0.0
  y: 0.0
  z: 0.39213909292793203
---
linear: 
  x: 0.16800709084393212
  y: 0.0
  z: 0.0
angular: 
  x: 0.0
  y: 0.0
  z: 0.37766377579115107
---
linear: 
  x: 0.16483074757872732
  y: 0.0
  z: 0.0
angular: 
  x: 0.0
  y: 0.0
  z: 0.3867550087231727
---
linear: 
  x: 0.14505951460498814
  y: 0.0
  z: 0.0
angular: 
  x: 0.0
  y: 0.0
  z: 0.3567006815431385
---
linear: 
  x: 0.13091662698339918
  y: 0.0
  z: 0.0
angular: 
  x: 0.0
  y: 0.0
  z: 0.32187660748661195
---
linear: 
  x: 0.11873733339639748
  y: 0.0
  z: 0.0
angular: 
  x: 0.0
  y: 0.0
  z: 0.28213316243167624
---
linear: 
  x: 0.10769744610049348
  y: 0.0
  z: 0.0
angular: 
  x: 0.0
  y: 0.0
  z: 0.2387738961913716
---
linear: 
  x: 0.0977794346550617
  y: 0.0
  z: 0.0
angular: 
  x: 0.0
  y: 0.0
  z: 0.19544584542275434
---
linear: 
  x: 0.08897469356713947
  y: 0.0
  z: 0.0
angular: 
  x: 0.0
  y: 0.0
  z: 0.1551743654182381
---
linear: 
  x: 0.08109240299514416
  y: 0.0
  z: 0.0
angular: 
  x: 0.0
  y: 0.0
  z: 0.11817478005743816
---
linear: 
  x: 0.0740378279499446
  y: 0.0
  z: 0.0
angular: 
  x: 0.0
  y: 0.0
  z: 0.08482305574716198
---
linear: 
  x: 0.06773717956595363
  y: 0.0
  z: 0.0
angular: 
  x: 0.0
  y: 0.0
  z: 0.056734335454064144
---
linear: 
  x: 0.0621132848133552
  y: 0.0
  z: 0.0
angular: 
  x: 0.0
  y: 0.0
  z: 0.035243461520145056
---
linear: 
  x: 0.05706459853199003
  y: 0.0
  z: 0.0
angular: 
  x: 0.0
  y: 0.0
  z: 0.019955704642299198
---
linear: 
  x: 0.05255224361161147
  y: 0.0
  z: 0.0
angular: 
  x: 0.0
  y: 0.0
  z: 0.010256776737402534
---
linear: 
  x: 0.04850210327281955
  y: 0.0
  z: 0.0
angular: 
  x: 0.0
  y: 0.0
  z: 0.0050400082630136485
---
linear: 
  x: 0.04484749248679198
  y: 0.0
  z: 0.0
angular: 
  x: 0.0
  y: 0.0
  z: 0.0031651889162561953
---
linear: 
  x: 0.04155802067614592
  y: 0.0
  z: 0.0
angular: 
  x: 0.0
  y: 0.0
  z: 0.0032986245182918435
---
linear: 
  x: 0.03857822562127658
  y: 0.0
  z: 0.0
angular: 
  x: 0.0
  y: 0.0
  z: 0.00430278560770527
---
linear: 
  x: 0.03588956642066512
  y: 0.0
  z: 0.0
angular: 
  x: 0.0
  y: 0.0
  z: 0.005449202205997305
---
linear: 
  x: 0.03345573699149354
  y: 0.0
  z: 0.0
angular: 
  x: 0.0
  y: 0.0
  z: 0.006419151807189721
---
linear: 
  x: 0.03125356972332881
  y: 0.0
  z: 0.0
angular: 
  x: 0.0
  y: 0.0
  z: 0.006971286294524777
---
linear: 
  x: 0.029264325343827134
  y: 0.0
  z: 0.0
angular: 
  x: 0.0
  y: 0.0
  z: 0.006999416554685577
---
linear: 
  x: 0.027450998204259044
  y: 0.0
  z: 0.0
angular: 
  x: 0.0
  y: 0.0
  z: 0.006444092165333698
---
linear: 
  x: 0.02582206397006051
  y: 0.0
  z: 0.0
angular: 
  x: 0.0
  y: 0.0
  z: 0.00497906612456091
---
linear: 
  x: 0.024344281722209975
  y: 0.0
  z: 0.0
angular: 
  x: 0.0
  y: 0.0
  z: 0.0027471449977903768
---
linear: 
  x: 0.02299776226235873
  y: 0.0
  z: 0.0
angular: 
  x: 0.0
  y: 0.0
  z: -0.00015102756081145086
---
linear: 
  x: 0.02271801893839578
  y: 0.0
  z: 0.0
angular: 
  x: 0.0
  y: 0.0
  z: -0.003967175007210284
---
linear: 
  x: 0.02112276409216795
  y: 0.0
  z: 0.0
angular: 
  x: 0.0
  y: 0.0
  z: -0.007024056717494807
---
linear: 
  x: 0.019916773438353803
  y: 0.0
  z: 0.0
angular: 
  x: 0.0
  y: 0.0
  z: -0.009665541983879927
---
linear: 
  x: 0.01881363735981384
  y: 0.0
  z: 0.0
angular: 
  x: 0.0
  y: 0.0
  z: -0.012238174053410015
---
linear: 
  x: 0.017763307207371147
  y: 0.0
  z: 0.0
angular: 
  x: 0.0
  y: 0.0
  z: -0.014122346334453334
---
linear: 
  x: 0.016762476141523087
  y: 0.0
  z: 0.0
angular: 
  x: 0.0
  y: 0.0
  z: -0.01511701312176233
---
linear: 
  x: 0.015819135586942718
  y: 0.0
  z: 0.0
angular: 
  x: 0.0
  y: 0.0
  z: -0.01555492556520763
---
linear: 
  x: 0.014933144854000987
  y: 0.0
  z: 0.0
angular: 
  x: 0.0
  y: 0.0
  z: -0.01565816964618686
---
linear: 
  x: 0.014101471106143841
  y: 0.0
  z: 0.0
angular: 
  x: 0.0
  y: 0.0
  z: -0.015547916449191181
---
linear: 
  x: 0.013321767572059988
  y: 0.0
  z: 0.0
angular: 
  x: 0.0
  y: 0.0
  z: -0.015333804013989809
---
linear: 
  x: 0.012592072305025213
  y: 0.0
  z: 0.0
angular: 
  x: 0.0
  y: 0.0
  z: -0.01506432301686984
---
linear: 
  x: 0.011908389378849527
  y: 0.0
  z: 0.0
angular: 
  x: 0.0
  y: 0.0
  z: -0.014820156735104922
---
linear: 
  x: 0.011266275070855133
  y: 0.0
  z: 0.0
angular: 
  x: 0.0
  y: 0.0
  z: -0.014552153682695891
---
linear: 
  x: 0.010662365049881627
  y: 0.0
  z: 0.0
angular: 
  x: 0.0
  y: 0.0
  z: -0.014232504636857166
---
linear: 
  x: 0.010094609975277133
  y: 0.0
  z: 0.0
angular: 
  x: 0.0
  y: 0.0
  z: -0.013919209947040665
---
linear: 
  x: 0.009557670646114378
  y: 0.0
  z: 0.0
angular: 
  x: 0.0
  y: 0.0
  z: -0.0135794375950477
---
linear: 
  x: 0.009054421077807875
  y: 0.0
  z: 0.0
angular: 
  x: 0.0
  y: 0.0
  z: -0.013257275556720183
---
linear: 
  x: 0.008579797618573519
  y: 0.0
  z: 0.0
angular: 
  x: 0.0
  y: 0.0
  z: -0.012982501579310857
---
linear: 
  x: 0.008132909225355024
  y: 0.0
  z: 0.0
angular: 
  x: 0.0
  y: 0.0
  z: -0.012795292797914986
---
linear: 
  x: 0.007711558615750979
  y: 0.0
  z: 0.0
angular: 
  x: 0.0
  y: 0.0
  z: -0.012680892114566333
---
linear: 
  x: 0.007314274886670065
  y: 0.0
  z: 0.0
angular: 
  x: 0.0
  y: 0.0
  z: -0.012652434135437469
---
linear: 
  x: 0.006939349736804848
  y: 0.0
  z: 0.0
angular: 
  x: 0.0
  y: 0.0
  z: -0.012693693227169772
---
linear: 
  x: 0.006586067998176344
  y: 0.0
  z: 0.0
angular: 
  x: 0.0
  y: 0.0
  z: -0.012852423258712707
---
linear: 
  x: 0.006251740158409246
  y: 0.0
  z: 0.0
angular: 
  x: 0.0
  y: 0.0
  z: -0.013026268318450518
---
linear: 
  x: 0.0059349342322673965
  y: 0.0
  z: 0.0
angular: 
  x: 0.0
  y: 0.0
  z: -0.013211794815352802
---
linear: 
  x: 0.005636247121167639
  y: 0.0
  z: 0.0
angular: 
  x: 0.0
  y: 0.0
  z: -0.013437481415044434
---
linear: 
  x: 0.005575793404349805
  y: 0.0
  z: 0.0
angular: 
  x: 0.0
  y: 0.0
  z: -0.013787081618296471
---
linear: 
  x: 0.005213794280954399
  y: 0.0
  z: 0.0
angular: 
  x: 0.0
  y: 0.0
  z: -0.01406526103931177
---
linear: 
  x: 0.004942744179856609
  y: 0.0
  z: 0.0
angular: 
  x: 0.0
  y: 0.0
  z: -0.014434573186511817
---
linear: 
  x: 0.004692012903277723
  y: 0.0
  z: 0.0
angular: 
  x: 0.0
  y: 0.0
  z: -0.014858061622241675
---
linear: 
  x: 0.004454357721244331
  y: 0.0
  z: 0.0
angular: 
  x: 0.0
  y: 0.0
  z: -0.015352127392543657
---
linear: 
  x: 0.004229952501348684
  y: 0.0
  z: 0.0
angular: 
  x: 0.0
  y: 0.0
  z: -0.01593349728336559
---
linear: 
  x: 0.004018193449891078
  y: 0.0
  z: 0.0
angular: 
  x: 0.0
  y: 0.0
  z: -0.016623846134828008
---
linear: 
  x: 0.003818525415840663
  y: 0.0
  z: 0.0
angular: 
  x: 0.0
  y: 0.0
  z: -0.017440781451015228
---
linear: 
  x: 0.0036299002702106595
  y: 0.0
  z: 0.0
angular: 
  x: 0.0
  y: 0.0
  z: -0.018352690744642665
---
linear: 
  x: 0.0034504519109070228
  y: 0.0
  z: 0.0
angular: 
  x: 0.0
  y: 0.0
  z: -0.019165919175201364
---
linear: 
  x: 0.003279569944084422
  y: 0.0
  z: 0.0
angular: 
  x: 0.0
  y: 0.0
  z: -0.019808141292303513
---
linear: 
  x: 0.003117306476812038
  y: 0.0
  z: 0.0
angular: 
  x: 0.0
  y: 0.0
  z: -0.020339837080463972
---
linear: 
  x: 0.002963440312603937
  y: 0.0
  z: 0.0
angular: 
  x: 0.0
  y: 0.0
  z: -0.02097751509503193
---
linear: 
  x: 0.0028164862708712256
  y: 0.0
  z: 0.0
angular: 
  x: 0.0
  y: 0.0
  z: -0.022759459467346345
---
linear: 
  x: 0.002672160477245539
  y: 0.0
  z: 0.0
angular: 
  x: 0.0
  y: 0.0
  z: -0.027910231312576562
---
linear: 
  x: 0.0025192087646019184
  y: 0.0
  z: 0.0
angular: 
  x: 0.0
  y: 0.0
  z: -0.043292777434341484
---
linear: 
  x: 0.002296764998263931
  y: 0.0
  z: 0.0
angular: 
  x: 0.0
  y: 0.0
  z: -0.07228343269400649
---
linear: 
  x: 0.001990323570342256
  y: 0.0
  z: 0.0
angular: 
  x: 0.0
  y: 0.0
  z: -0.14639216226787422
---
